{"address":"1314 44 Avenue NE","alcohol?":0,"attributes":{"BikeParking":"False","BusinessAcceptsCreditCards":"True","BusinessParking":"{'garage': False, 'street': True, 'validated': False, 'lot': False, 'valet': False}","GoodForKids":"True","HasTV":"True","NoiseLevel":"average","OutdoorSeating":"False","RestaurantsAttire":"casual","RestaurantsDelivery":"False","RestaurantsGoodForGroups":"True","RestaurantsPriceRange2":"2","RestaurantsReservations":"True","RestaurantsTakeOut":"True"},"business_id":"Apn5Q_b6Nz61Tq4XzPdf9A","categories":"Tours, Breweries, Pizza, Restaurants, Food, Hotels & Travel","city":"Calgary","good_for_kids":1,"has_bike_parking":0,"has_wifi":0,"hours":{"Monday":"8:30-17:0","Tuesday":"11:0-21:0","Wednesday":"11:0-21:0","Thursday":"11:0-21:0","Friday":"11:0-21:0","Saturday":"11:0-21:0"},"is_open":1,"latitude":51.0918130155,"longitude":-114.031674872,"name":"Minhas Micro Brewery","neighborhood":"","postal_code":"T2E 6L6","price_range":2,"review_count":24,"stars":4.0,"state":"AB","take_reservations":1,"takes_credit_cards":1}
{"address":"","alcohol?":0,"attributes":{"Alcohol":"none","BikeParking":"False","BusinessAcceptsCreditCards":"True","BusinessParking":"{'garage': False, 'street': True, 'validated': False, 'lot': True, 'valet': False}","Caters":"True","DogsAllowed":"True","DriveThru":"False","GoodForKids":"True","GoodForMeal":"{'dessert': False, 'latenight': False, 'lunch': False, 'dinner': False, 'breakfast': False, 'brunch': False}","HasTV":"False","OutdoorSeating":"True","RestaurantsAttire":"casual","RestaurantsDelivery":"False","RestaurantsGoodForGroups":"True","RestaurantsPriceRange2":"2","RestaurantsReservations":"False","RestaurantsTableService":"False","RestaurantsTakeOut":"True","WheelchairAccessible":"True","WiFi":"no"},"business_id":"AjEbIBw6ZFfln7ePHha9PA","categories":"Chicken Wings, Burgers, Caterers, Street Vendors, Barbeque, Food Trucks, Food, Restaurants, Event Planning & Services","city":"Henderson","good_for_kids":1,"has_bike_parking":0,"has_wifi":0,"hours":{"Friday":"17:0-23:0","Saturday":"17:0-23:0","Sunday":"17:0-23:0"},"is_open":0,"latitude":35.9607337,"longitude":-114.939821,"name":"CK'S BBQ & Catering","neighborhood":"","postal_code":"89002","price_range":2,"review_count":3,"stars":4.5,"state":"NV","take_reservations":0,"takes_credit_cards":1}
{"address":"1335 rue Beaubien E","alcohol?":1,"attributes":{"Alcohol":"beer_and_wine","Ambience":"{'romantic': False, 'intimate': False, 'classy': False, 'hipster': False, 'touristy': False, 'trendy': False, 'upscale': False, 'casual': False}","BikeParking":"True","BusinessAcceptsCreditCards":"False","BusinessParking":"{'garage': False, 'street': False, 'validated': False, 'lot': False, 'valet': False}","Caters":"False","GoodForKids":"True","GoodForMeal":"{'dessert': False, 'latenight': False, 'lunch': False, 'dinner': False, 'breakfast': False, 'brunch': False}","HasTV":"True","NoiseLevel":"average","OutdoorSeating":"False","RestaurantsAttire":"casual","RestaurantsDelivery":"False","RestaurantsGoodForGroups":"True","RestaurantsPriceRange2":"2","RestaurantsReservations":"True","RestaurantsTableService":"True","RestaurantsTakeOut":"False","WiFi":"free"},"business_id":"O8S5hYJ1SMc8fA4QBtVujA","categories":"Breakfast & Brunch, Restaurants, French, Sandwiches, Cafes","city":"Montr\u00e9al","good_for_kids":1,"has_bike_parking":1,"has_wifi":1,"hours":{"Monday":"10:0-22:0","Tuesday":"10:0-22:0","Wednesday":"10:0-22:0","Thursday":"10:0-22:0","Friday":"10:0-22:0","Saturday":"10:0-22:0","Sunday":"10:0-22:0"},"is_open":0,"latitude":45.5405031,"longitude":-73.5993003,"name":"La Bastringue","neighborhood":"Rosemont-La Petite-Patrie","postal_code":"H2G 1K7","price_range":2,"review_count":5,"stars":4.0,"state":"QC","take_reservations":1,"takes_credit_cards":0}
{"address":"211 W Monroe St","alcohol?":0,"attributes":null,"business_id":"bFzdJJ3wp3PZssNEsyU23g","categories":"Insurance, Financial Services","city":"Phoenix","good_for_kids":0,"has_bike_parking":0,"has_wifi":0,"hours":null,"is_open":1,"latitude":33.4499993,"longitude":-112.0769793,"name":"Geico Insurance","neighborhood":"","postal_code":"85003","price_range":0,"review_count":8,"stars":1.5,"state":"AZ","take_reservations":0,"takes_credit_cards":0}
{"address":"2005 Alyth Place SE","alcohol?":0,"attributes":{"BusinessAcceptsCreditCards":"True"},"business_id":"8USyCYqpScwiNEb58Bt6CA","categories":"Home & Garden, Nurseries & Gardening, Shopping, Local Services, Automotive, Electronics Repair","city":"Calgary","good_for_kids":0,"has_bike_parking":0,"has_wifi":0,"hours":{"Monday":"8:0-17:0","Tuesday":"8:0-17:0","Wednesday":"8:0-17:0","Thursday":"8:0-17:0","Friday":"8:0-17:0"},"is_open":1,"latitude":51.0355914,"longitude":-114.0273656,"name":"Action Engine","neighborhood":"","postal_code":"T2H 0N5","price_range":0,"review_count":4,"stars":2.0,"state":"AB","take_reservations":0,"takes_credit_cards":1}
{"address":"20235 N Cave Creek Rd, Ste 1115","alcohol?":0,"attributes":{"BikeParking":"True","BusinessAcceptsCreditCards":"True","BusinessParking":"{'garage': False, 'street': False, 'validated': False, 'lot': True, 'valet': False}","Caters":"False","OutdoorSeating":"True","RestaurantsPriceRange2":"1","RestaurantsTakeOut":"True","WheelchairAccessible":"True","WiFi":"free"},"business_id":"45bWSZtniwPRiqlivpS8Og","categories":"Coffee & Tea, Food","city":"Phoenix","good_for_kids":0,"has_bike_parking":1,"has_wifi":1,"hours":{"Monday":"5:30-20:0","Tuesday":"5:30-20:0","Wednesday":"5:30-20:0","Thursday":"5:30-20:0","Friday":"5:30-21:0","Saturday":"5:30-21:0","Sunday":"6:30-19:0"},"is_open":1,"latitude":33.6713751,"longitude":-112.0300171,"name":"The Coffee Bean & Tea Leaf","neighborhood":"","postal_code":"85024","price_range":1,"review_count":63,"stars":4.0,"state":"AZ","take_reservations":0,"takes_credit_cards":1}
{"address":"631 Bloor St W","alcohol?":0,"attributes":{"BusinessParking":"{'garage': False, 'street': False, 'validated': False, 'lot': False, 'valet': False}","RestaurantsPriceRange2":"1"},"business_id":"9A2quhZLyWk0akUetBd8hQ","categories":"Food, Bakeries","city":"Toronto","good_for_kids":0,"has_bike_parking":0,"has_wifi":0,"hours":null,"is_open":0,"latitude":43.6643776,"longitude":-79.4144238,"name":"Bnc Cake House","neighborhood":"Koreatown","postal_code":"M6G 1K8","price_range":1,"review_count":7,"stars":4.0,"state":"ON","take_reservations":0,"takes_credit_cards":0}
{"address":"3417 Derry Road E, Unit 103","alcohol?":0,"attributes":{"Alcohol":"none","BusinessAcceptsCreditCards":"True","BusinessParking":"{'garage': False, 'street': False, 'validated': False, 'lot': False, 'valet': False}","GoodForKids":"True","OutdoorSeating":"False","RestaurantsAttire":"casual","RestaurantsGoodForGroups":"True","RestaurantsPriceRange2":"2","RestaurantsTableService":"False","RestaurantsTakeOut":"True"},"business_id":"6OuOZAok8ikONMS_T3EzXg","categories":"Restaurants, Thai","city":"Mississauga","good_for_kids":1,"has_bike_parking":0,"has_wifi":0,"hours":null,"is_open":1,"latitude":43.7129464,"longitude":-79.6327631,"name":"Thai One On","neighborhood":"Ridgewood","postal_code":"L4T 1A8","price_range":2,"review_count":7,"stars":2.0,"state":"ON","take_reservations":0,"takes_credit_cards":1}
{"address":"1440 N. Dysart Ave","alcohol?":0,"attributes":{"Alcohol":"none","Ambience":"{'romantic': False, 'intimate': False, 'classy': False, 'hipster': False, 'divey': False, 'touristy': False, 'trendy': False, 'upscale': False, 'casual': True}","BikeParking":"True","BusinessAcceptsCreditCards":"True","BusinessParking":"{'garage': False, 'street': False, 'validated': False, 'lot': True, 'valet': False}","Caters":"False","GoodForKids":"True","GoodForMeal":"{'dessert': False, 'latenight': True, 'lunch': False, 'dinner': False, 'breakfast': False, 'brunch': False}","HasTV":"False","NoiseLevel":"average","OutdoorSeating":"False","RestaurantsAttire":"casual","RestaurantsDelivery":"False","RestaurantsGoodForGroups":"True","RestaurantsPriceRange2":"1","RestaurantsReservations":"False","RestaurantsTableService":"False","RestaurantsTakeOut":"True","WheelchairAccessible":"True","WiFi":"no"},"business_id":"8-NRKkPY1UiFXW20WXKiXg","categories":"Mexican, Restaurants","city":"Avondale","good_for_kids":1,"has_bike_parking":1,"has_wifi":0,"hours":{"Monday":"0:0-0:0","Tuesday":"0:0-0:0","Wednesday":"0:0-0:0","Thursday":"0:0-0:0","Friday":"0:0-0:0","Saturday":"0:0-0:0","Sunday":"0:0-0:0"},"is_open":1,"latitude":33.4481059352,"longitude":-112.341302074,"name":"Filiberto's Mexican Food","neighborhood":"","postal_code":"85323","price_range":1,"review_count":40,"stars":2.5,"state":"AZ","take_reservations":0,"takes_credit_cards":1}
{"address":"209 Oakland Ave","alcohol?":0,"attributes":{"BikeParking":"True","BusinessAcceptsCreditCards":"True","BusinessParking":"{'garage': False, 'street': False, 'validated': False, 'lot': False, 'valet': False}","RestaurantsPriceRange2":"2"},"business_id":"UTm5QZThPQlT35mkAcGOjg","categories":"Flowers & Gifts, Gift Shops, Shopping","city":"Pittsburgh","good_for_kids":0,"has_bike_parking":1,"has_wifi":0,"hours":{"Monday":"9:0-18:0","Tuesday":"9:0-18:0","Wednesday":"9:0-18:0","Thursday":"9:0-18:0","Friday":"9:0-17:0","Saturday":"10:0-17:0"},"is_open":1,"latitude":40.4414214,"longitude":-79.9564571,"name":"Maggie & Stella's Gifts","neighborhood":"Oakland","postal_code":"15213","price_range":2,"review_count":3,"stars":3.5,"state":"PA","take_reservations":0,"takes_credit_cards":1}
{"address":"4568 Highway 7 E","alcohol?":0,"attributes":{"GoodForKids":"True","NoiseLevel":"loud","RestaurantsAttire":"casual","RestaurantsGoodForGroups":"True","RestaurantsTakeOut":"True"},"business_id":"KapTdGyGs7RK0c68Z6hhhg","categories":"Restaurants, Japanese","city":"Markham","good_for_kids":1,"has_bike_parking":0,"has_wifi":0,"hours":{"Monday":"11:30-23:0","Tuesday":"11:30-23:0","Wednesday":"11:30-23:0","Thursday":"11:30-23:0","Friday":"11:30-23:0","Saturday":"11:30-23:0","Sunday":"12:0-23:0"},"is_open":0,"latitude":43.862484,"longitude":-79.3069597,"name":"Sushi 8","neighborhood":"Unionville","postal_code":"L3R 1M5","price_range":0,"review_count":12,"stars":1.5,"state":"ON","take_reservations":0,"takes_credit_cards":0}
{"address":"595 Markham Street","alcohol?":1,"attributes":{"Alcohol":"full_bar","Ambience":"{'romantic': False, 'intimate': False, 'classy': False, 'hipster': False, 'touristy': False, 'trendy': False, 'upscale': False, 'casual': False}","BikeParking":"True","BusinessAcceptsCreditCards":"True","BusinessParking":"{'garage': False, 'street': True, 'validated': False, 'lot': False, 'valet': False}","Caters":"True","DogsAllowed":"False","GoodForKids":"False","GoodForMeal":"{'dessert': False, 'latenight': False, 'lunch': False, 'dinner': True, 'breakfast': False, 'brunch': False}","HasTV":"False","NoiseLevel":"average","OutdoorSeating":"True","RestaurantsAttire":"casual","RestaurantsDelivery":"False","RestaurantsGoodForGroups":"True","RestaurantsPriceRange2":"2","RestaurantsReservations":"True","RestaurantsTableService":"True","RestaurantsTakeOut":"True","WheelchairAccessible":"False","WiFi":"no"},"business_id":"tZnSodhPwNr4bzrwJ1CSbw","categories":"Cajun\/Creole, Southern, Restaurants","city":"Toronto","good_for_kids":0,"has_bike_parking":1,"has_wifi":0,"hours":{"Tuesday":"17:0-1:0","Wednesday":"17:0-1:0","Thursday":"17:0-1:0","Friday":"17:0-1:0","Saturday":"17:0-1:0","Sunday":"17:0-1:0"},"is_open":0,"latitude":43.6641249,"longitude":-79.4118861,"name":"Southern Accent Restaurant","neighborhood":"Palmerston","postal_code":"M6G 2L7","price_range":2,"review_count":146,"stars":4.0,"state":"ON","take_reservations":1,"takes_credit_cards":1}
{"address":"2801 N 15th Ave","alcohol?":1,"attributes":{"Alcohol":"full_bar","Ambience":"{'romantic': False, 'intimate': False, 'classy': False, 'hipster': False, 'divey': False, 'touristy': False, 'trendy': False, 'upscale': False, 'casual': True}","BYOB":"False","BYOBCorkage":"yes_free","BestNights":"{'monday': False, 'tuesday': True, 'friday': True, 'wednesday': False, 'thursday': False, 'sunday': False, 'saturday': True}","BikeParking":"True","BusinessAcceptsCreditCards":"True","BusinessParking":"{'garage': False, 'street': False, 'validated': False, 'lot': True, 'valet': False}","Caters":"False","CoatCheck":"False","Corkage":"False","DriveThru":"False","GoodForDancing":"False","GoodForKids":"True","GoodForMeal":"{'dessert': False, 'latenight': False, 'lunch': True, 'dinner': True, 'breakfast': False, 'brunch': False}","HappyHour":"True","HasTV":"True","Music":"{'dj': False, 'background_music': False, 'no_music': False, 'karaoke': False, 'live': False, 'video': False, 'jukebox': False}","NoiseLevel":"average","OutdoorSeating":"True","RestaurantsAttire":"casual","RestaurantsDelivery":"False","RestaurantsGoodForGroups":"True","RestaurantsPriceRange2":"1","RestaurantsReservations":"False","RestaurantsTableService":"False","RestaurantsTakeOut":"True","Smoking":"outdoor","WheelchairAccessible":"True","WiFi":"no"},"business_id":"_c3ixq9jYKxhLUB0czi0ug","categories":"Bars, Sports Bars, Dive Bars, Burgers, Nightlife, Sandwiches, Restaurants","city":"Phoenix","good_for_kids":1,"has_bike_parking":1,"has_wifi":0,"hours":{"Monday":"11:0-22:0","Tuesday":"11:0-22:0","Wednesday":"11:0-22:0","Thursday":"11:0-22:0","Friday":"11:0-23:0","Saturday":"11:0-22:0","Sunday":"11:0-21:0"},"is_open":1,"latitude":33.4798071,"longitude":-112.0911877,"name":"Original Hamburger Works","neighborhood":"","postal_code":"85007","price_range":1,"review_count":277,"stars":4.0,"state":"AZ","take_reservations":0,"takes_credit_cards":1}
{"address":"4216 Saint-Laurent Boul","alcohol?":1,"attributes":{"Alcohol":"full_bar","Ambience":"{'romantic': False, 'intimate': False, 'classy': False, 'hipster': False, 'touristy': False, 'trendy': False, 'upscale': False, 'casual': False}","BikeParking":"True","BusinessAcceptsCreditCards":"True","BusinessParking":"{'garage': False, 'street': False, 'validated': False, 'lot': False, 'valet': False}","GoodForKids":"True","GoodForMeal":"{'dessert': False, 'latenight': False, 'lunch': True, 'dinner': False, 'breakfast': False, 'brunch': False}","HasTV":"False","NoiseLevel":"quiet","OutdoorSeating":"False","RestaurantsAttire":"casual","RestaurantsDelivery":"True","RestaurantsGoodForGroups":"True","RestaurantsPriceRange2":"2","RestaurantsReservations":"True","RestaurantsTableService":"True","RestaurantsTakeOut":"True","WheelchairAccessible":"True","WiFi":"no"},"business_id":"bBUMib8l6Me1ZB1_Qkezkg","categories":"Restaurants, Pakistani, Indian, Middle Eastern","city":"Montr\u00e9al","good_for_kids":1,"has_bike_parking":1,"has_wifi":0,"hours":null,"is_open":1,"latitude":45.5180358,"longitude":-73.5821744,"name":"Mysore Indian Cuisine","neighborhood":"Plateau-Mont-Royal","postal_code":"H2W 1Z3","price_range":2,"review_count":19,"stars":3.5,"state":"QC","take_reservations":1,"takes_credit_cards":1}
{"address":"4404 14 Street NW","alcohol?":0,"attributes":{"BusinessParking":"{'garage': False, 'street': False, 'validated': False, 'lot': False, 'valet': False}","ByAppointmentOnly":"False"},"business_id":"o_zDURWzgt5yM5HW_xGJsg","categories":"Beauty & Spas, Barbers","city":"Calgary","good_for_kids":0,"has_bike_parking":0,"has_wifi":0,"hours":{"Monday":"9:30-18:0","Tuesday":"9:30-18:0","Wednesday":"9:30-18:0","Thursday":"9:30-18:0","Friday":"9:30-18:0","Saturday":"9:30-18:0"},"is_open":1,"latitude":51.0918572,"longitude":-114.094625,"name":"North Haven Barber Shop","neighborhood":"","postal_code":"T2K","price_range":0,"review_count":3,"stars":4.5,"state":"AB","take_reservations":0,"takes_credit_cards":0}
{"address":"1200 37 St SW","alcohol?":0,"attributes":{"BusinessAcceptsCreditCards":"True","BusinessParking":"{'garage': False, 'street': False, 'validated': False, 'lot': False, 'valet': False}","GoodForMeal":"{'dessert': False, 'latenight': False, 'lunch': False, 'dinner': False, 'breakfast': False, 'brunch': False}","RestaurantsPriceRange2":"2"},"business_id":"IbTDLI02Sq50C7B-EWK1sg","categories":"Delis, Restaurants, Sandwiches","city":"Calgary","good_for_kids":0,"has_bike_parking":0,"has_wifi":0,"hours":null,"is_open":1,"latitude":51.0424689,"longitude":-114.1395743,"name":"Safeway Food & Drug","neighborhood":"","postal_code":"T3C 1S2","price_range":2,"review_count":4,"stars":2.5,"state":"AB","take_reservations":0,"takes_credit_cards":1}
{"address":"438 Place Jacques Cartier","alcohol?":1,"attributes":{"Alcohol":"full_bar","BikeParking":"True","BusinessAcceptsCreditCards":"True","BusinessParking":"{'garage': False, 'street': False, 'validated': False, 'lot': False, 'valet': False}","Caters":"False","DogsAllowed":"False","GoodForKids":"False","GoodForMeal":"{'dessert': False, 'latenight': False, 'lunch': False, 'dinner': False, 'breakfast': False, 'brunch': False}","HappyHour":"True","HasTV":"False","NoiseLevel":"average","OutdoorSeating":"True","RestaurantsAttire":"dressy","RestaurantsDelivery":"False","RestaurantsGoodForGroups":"True","RestaurantsPriceRange2":"3","RestaurantsReservations":"True","RestaurantsTakeOut":"False","WheelchairAccessible":"True","WiFi":"free"},"business_id":"r89Re4FNgVWHgBfjCVZyVw","categories":"Nightlife, Bars, American (Traditional), Tapas\/Small Plates, Poutineries, Supper Clubs, Restaurants, Tapas Bars","city":"Montr\u00e9al","good_for_kids":0,"has_bike_parking":1,"has_wifi":1,"hours":{"Monday":"11:30-23:0","Tuesday":"11:30-23:0","Wednesday":"11:30-23:0","Thursday":"11:30-3:0","Friday":"11:30-0:0","Saturday":"11:30-0:0","Sunday":"11:30-23:0"},"is_open":0,"latitude":45.507699,"longitude":-73.553407,"name":"Harlow","neighborhood":"Ville-Marie","postal_code":"H2Y 3B3","price_range":3,"review_count":12,"stars":3.5,"state":"QC","take_reservations":1,"takes_credit_cards":1}
{"address":"703 N Rancho Dr","alcohol?":0,"attributes":{"BusinessAcceptsCreditCards":"True","BusinessParking":"{'garage': False, 'street': False, 'validated': False, 'lot': False, 'valet': False}","RestaurantsPriceRange2":"2"},"business_id":"hTzcHtk4-0QJnFUbkKpd5Q","categories":"Shopping, Fashion, Department Stores","city":"Las Vegas","good_for_kids":0,"has_bike_parking":0,"has_wifi":0,"hours":null,"is_open":1,"latitude":36.1783477,"longitude":-115.1769162,"name":"Citi Trends","neighborhood":"","postal_code":"89106","price_range":2,"review_count":4,"stars":4.0,"state":"NV","take_reservations":0,"takes_credit_cards":1}
{"address":"1549 N Rancho Dr","alcohol?":0,"attributes":null,"business_id":"UwIpS9UKsPiKAv1fiEYhqg","categories":"Financial Services, Check Cashing\/Pay-day Loans, Title Loans","city":"Las Vegas","good_for_kids":0,"has_bike_parking":0,"has_wifi":0,"hours":{"Monday":"10:0-19:0","Tuesday":"10:0-18:0","Wednesday":"10:0-18:0","Thursday":"10:0-18:0","Friday":"10:0-19:0","Saturday":"9:0-16:0","Sunday":"8:0-17:0"},"is_open":1,"latitude":36.1883858514,"longitude":-115.186123699,"name":"Nevada Title And Payday Loans","neighborhood":"","postal_code":"89106","price_range":0,"review_count":4,"stars":1.0,"state":"NV","take_reservations":0,"takes_credit_cards":0}
{"address":"3940 Martin Luther King Blvd, Ste 101","alcohol?":0,"attributes":{"BikeParking":"True","BusinessAcceptsCreditCards":"True","RestaurantsDelivery":"False"},"business_id":"vJIuDBdu01vCA8y1fwR1OQ","categories":"American (Traditional), Food, Bakeries, Restaurants","city":"Las Vegas","good_for_kids":0,"has_bike_parking":1,"has_wifi":0,"hours":{"Tuesday":"11:0-18:0","Wednesday":"11:0-18:0","Thursday":"11:0-18:0","Friday":"11:0-18:0","Saturday":"11:0-17:0"},"is_open":0,"latitude":36.1922841,"longitude":-115.1592718,"name":"CakesbyToi","neighborhood":"","postal_code":"89106","price_range":0,"review_count":3,"stars":1.5,"state":"NV","take_reservations":0,"takes_credit_cards":1}
{"address":"","alcohol?":0,"attributes":{"BusinessAcceptsCreditCards":"True"},"business_id":"YZCHr68c5aEVHz0bkq9K2g","categories":"Home Services, Masonry\/Concrete, Professional Services, Contractors","city":"Las Vegas","good_for_kids":0,"has_bike_parking":0,"has_wifi":0,"hours":null,"is_open":1,"latitude":36.2608162,"longitude":-115.1711298,"name":"Park Stone Pavers","neighborhood":"","postal_code":"89031","price_range":0,"review_count":20,"stars":5.0,"state":"NV","take_reservations":0,"takes_credit_cards":1}
{"address":"3040 Carnegie Ave","alcohol?":0,"attributes":null,"business_id":"gJ5xSt6147gkcZ9Es0WxlA","categories":"Fast Food, Burgers, Restaurants","city":"Cleveland","good_for_kids":0,"has_bike_parking":0,"has_wifi":0,"hours":null,"is_open":1,"latitude":41.4999894,"longitude":-81.6663746,"name":"Rally's Hamburgers","neighborhood":"Central","postal_code":"44115","price_range":0,"review_count":5,"stars":3.0,"state":"OH","take_reservations":0,"takes_credit_cards":0}
{"address":"4131 N 83rd Ave","alcohol?":0,"attributes":{"Ambience":"{'romantic': False, 'intimate': False, 'classy': False, 'hipster': False, 'divey': False, 'touristy': False, 'trendy': False, 'upscale': False, 'casual': False}","BusinessAcceptsCreditCards":"True","BusinessParking":"{'garage': False, 'street': False, 'validated': False, 'lot': False, 'valet': False}","CoatCheck":"False","GoodForDancing":"False","GoodForKids":"False","GoodForMeal":"{'dessert': False, 'latenight': False, 'lunch': False, 'dinner': False, 'breakfast': False, 'brunch': False}","HasTV":"True","Music":"{'dj': False, 'background_music': False, 'no_music': False, 'karaoke': False, 'live': False, 'video': False, 'jukebox': True}","NoiseLevel":"average","OutdoorSeating":"False","RestaurantsAttire":"casual","RestaurantsPriceRange2":"1","RestaurantsTableService":"True","RestaurantsTakeOut":"True","WiFi":"free"},"business_id":"3ByGQOVgds2YEu6kzl-XEQ","categories":"Nightlife, Bars, American (Traditional), Sports Bars, Restaurants","city":"Phoenix","good_for_kids":0,"has_bike_parking":0,"has_wifi":1,"hours":null,"is_open":1,"latitude":33.4952976,"longitude":-112.2360764,"name":"Rib Shop","neighborhood":"","postal_code":"85033","price_range":1,"review_count":3,"stars":2.5,"state":"AZ","take_reservations":0,"takes_credit_cards":1}
{"address":"746 Street Clair Avenue W","alcohol?":0,"attributes":{"BikeParking":"True","BusinessAcceptsCreditCards":"True","BusinessParking":"{'garage': False, 'street': False, 'validated': False, 'lot': False, 'valet': False}","OutdoorSeating":"False","RestaurantsDelivery":"False","RestaurantsPriceRange2":"2","RestaurantsTakeOut":"True","WiFi":"no"},"business_id":"5J3b7j3Fzo9ISjChmoUoUA","categories":"Food, Bakeries, Coffee & Tea","city":"Toronto","good_for_kids":0,"has_bike_parking":1,"has_wifi":0,"hours":{"Monday":"7:30-19:0","Tuesday":"7:30-19:0","Wednesday":"7:30-19:0","Thursday":"7:30-19:0","Friday":"7:30-19:0","Saturday":"8:0-18:0","Sunday":"9:0-18:0"},"is_open":1,"latitude":43.6813277,"longitude":-79.4278838,"name":"Mabel's Bakery","neighborhood":"Wychwood","postal_code":"M6C 1B5","price_range":2,"review_count":23,"stars":4.0,"state":"ON","take_reservations":0,"takes_credit_cards":1}
{"address":"7745 W Thomas Rd","alcohol?":0,"attributes":{"BusinessAcceptsCreditCards":"True","GoodForKids":"True","GoodForMeal":"{'dessert': False, 'latenight': False, 'lunch': False, 'dinner': False, 'breakfast': False, 'brunch': False}","HasTV":"True","OutdoorSeating":"False","RestaurantsAttire":"casual","RestaurantsDelivery":"False","RestaurantsGoodForGroups":"True","RestaurantsPriceRange2":"1","RestaurantsReservations":"False","RestaurantsTakeOut":"True","WiFi":"no"},"business_id":"CeuTRtwsq6w5rztGOyNMPg","categories":"Mexican, Restaurants","city":"Phoenix","good_for_kids":1,"has_bike_parking":0,"has_wifi":0,"hours":null,"is_open":1,"latitude":33.4796712,"longitude":-112.2251729,"name":"Salsitas","neighborhood":"","postal_code":"85033","price_range":1,"review_count":14,"stars":2.5,"state":"AZ","take_reservations":0,"takes_credit_cards":1}
{"address":"1204 Bear Ln","alcohol?":0,"attributes":{"GoodForKids":"True","RestaurantsGoodForGroups":"True","RestaurantsPriceRange2":"1","RestaurantsTableService":"True","RestaurantsTakeOut":"True"},"business_id":"gsoSAb9t7Ar7Ww6O_3GuOg","categories":"Mexican, Restaurants","city":"Monticello","good_for_kids":1,"has_bike_parking":0,"has_wifi":0,"hours":{"Tuesday":"11:0-21:0","Wednesday":"11:0-21:0","Thursday":"11:0-21:0","Friday":"11:0-21:30","Saturday":"11:0-21:30","Sunday":"11:0-21:0"},"is_open":0,"latitude":40.0093278,"longitude":-88.5763857,"name":"Los Toros Numero 2","neighborhood":"","postal_code":"61856","price_range":1,"review_count":6,"stars":3.5,"state":"IL","take_reservations":0,"takes_credit_cards":0}
{"address":"","alcohol?":0,"attributes":{"BusinessAcceptsCreditCards":"True","ByAppointmentOnly":"True"},"business_id":"guRyrKMBDkcHExGzwxSfvg","categories":"Home Services, Home Automation, Security Systems","city":"Phoenix","good_for_kids":0,"has_bike_parking":0,"has_wifi":0,"hours":{"Monday":"0:0-0:0","Tuesday":"0:0-0:0","Wednesday":"0:0-0:0","Thursday":"0:0-0:0","Friday":"0:0-0:0","Saturday":"0:0-0:0","Sunday":"0:0-0:0"},"is_open":1,"latitude":33.4316647997,"longitude":-112.102958984,"name":"ADT Security Services, Inc.","neighborhood":"","postal_code":"85001","price_range":0,"review_count":4,"stars":1.0,"state":"AZ","take_reservations":0,"takes_credit_cards":1}
{"address":"99 Yorkville Avenue","alcohol?":0,"attributes":{"Ambience":"{'romantic': False, 'intimate': False, 'classy': False, 'hipster': False, 'touristy': False, 'trendy': False, 'upscale': False, 'casual': False}","BusinessAcceptsCreditCards":"True","GoodForKids":"True","GoodForMeal":"{'dessert': False, 'latenight': False, 'lunch': False, 'dinner': False, 'breakfast': False, 'brunch': False}","NoiseLevel":"average","OutdoorSeating":"True","RestaurantsAttire":"casual","RestaurantsDelivery":"False","RestaurantsGoodForGroups":"True","RestaurantsPriceRange2":"2","RestaurantsReservations":"False","RestaurantsTakeOut":"True"},"business_id":"PMDlKLd0Mxj0ngCpuUmE5Q","categories":"Restaurants, Food, Canadian (New), Coffee & Tea","city":"Toronto","good_for_kids":1,"has_bike_parking":0,"has_wifi":0,"hours":null,"is_open":0,"latitude":43.6708846,"longitude":-79.3923788,"name":"The Coffee Mill Restaurant","neighborhood":"Yorkville","postal_code":"M5R 3K5","price_range":2,"review_count":25,"stars":3.5,"state":"ON","take_reservations":0,"takes_credit_cards":1}
{"address":"1-905 Britannia Road West","alcohol?":0,"attributes":null,"business_id":"65DAbjsiws2_T600pNpWFQ","categories":"Optometrists, Shopping, Eyewear & Opticians, Health & Medical","city":"Mississauga","good_for_kids":0,"has_bike_parking":0,"has_wifi":0,"hours":{"Monday":"10:0-21:0","Tuesday":"10:0-21:0","Wednesday":"10:0-21:0","Thursday":"10:0-21:0","Friday":"10:0-21:0","Saturday":"10:0-18:0","Sunday":"11:0-17:0"},"is_open":1,"latitude":43.6092686,"longitude":-79.6990349,"name":"Laurier Optical","neighborhood":"East Credit","postal_code":"L5V 2X8","price_range":0,"review_count":3,"stars":1.0,"state":"ON","take_reservations":0,"takes_credit_cards":0}
{"address":"9525 State Rt 14","alcohol?":0,"attributes":{"BusinessAcceptsCreditCards":"True","BusinessParking":"{'garage': False, 'street': False, 'validated': False, 'lot': False, 'valet': False}","GoodForKids":"False","GoodForMeal":"{'dessert': False, 'latenight': False, 'lunch': False, 'dinner': False, 'breakfast': False, 'brunch': False}","OutdoorSeating":"False","RestaurantsAttire":"casual","RestaurantsDelivery":"True","RestaurantsGoodForGroups":"False","RestaurantsPriceRange2":"2","RestaurantsReservations":"False","RestaurantsTableService":"False","RestaurantsTakeOut":"True"},"business_id":"6YC6CsXRrmPv_iwfvc9onA","categories":"Pizza, Restaurants","city":"Streetsboro","good_for_kids":0,"has_bike_parking":0,"has_wifi":0,"hours":{"Monday":"11:0-22:0","Tuesday":"11:0-22:0","Wednesday":"11:0-22:0","Thursday":"11:0-22:0","Friday":"11:0-23:0","Saturday":"11:0-23:0","Sunday":"15:0-21:0"},"is_open":1,"latitude":41.2437831,"longitude":-81.3566613,"name":"Teresas Pizzeria","neighborhood":"","postal_code":"44241","price_range":2,"review_count":11,"stars":3.0,"state":"OH","take_reservations":0,"takes_credit_cards":1}
{"address":"5508 County Rd N, Ste 3","alcohol?":1,"attributes":{"Alcohol":"full_bar","Ambience":"{'romantic': False, 'intimate': False, 'classy': False, 'hipster': False, 'divey': True, 'touristy': False, 'trendy': False, 'upscale': False, 'casual': False}","BikeParking":"False","BusinessAcceptsCreditCards":"False","BusinessParking":"{'garage': False, 'street': False, 'validated': False, 'lot': True, 'valet': False}","Caters":"False","CoatCheck":"False","GoodForDancing":"False","GoodForKids":"False","GoodForMeal":"{'dessert': False, 'latenight': False, 'lunch': True, 'dinner': True, 'breakfast': False, 'brunch': False}","HappyHour":"True","HasTV":"True","Music":"{'dj': False, 'background_music': False, 'no_music': False, 'karaoke': False, 'live': False, 'video': False, 'jukebox': False}","NoiseLevel":"average","OutdoorSeating":"True","RestaurantsAttire":"casual","RestaurantsDelivery":"False","RestaurantsGoodForGroups":"True","RestaurantsPriceRange2":"1","RestaurantsReservations":"False","RestaurantsTableService":"False","RestaurantsTakeOut":"True","Smoking":"outdoor","WheelchairAccessible":"True","WiFi":"no"},"business_id":"42uRhhQDzbtKrUYoBPXS8A","categories":"Nightlife, Restaurants, Bars, Chicken Wings, American (Traditional)","city":"Sun Prairie","good_for_kids":0,"has_bike_parking":0,"has_wifi":0,"hours":{"Monday":"11:0-0:0","Tuesday":"11:0-0:0","Wednesday":"11:0-0:0","Thursday":"11:0-0:0","Friday":"11:0-0:0","Saturday":"11:0-0:0","Sunday":"11:0-0:0"},"is_open":1,"latitude":43.149488,"longitude":-89.206641,"name":"Chicken Lips","neighborhood":"","postal_code":"53590","price_range":1,"review_count":102,"stars":4.5,"state":"WI","take_reservations":0,"takes_credit_cards":0}
{"address":"3008 County Hwy T","alcohol?":0,"attributes":{"BusinessAcceptsCreditCards":"True","BusinessParking":"{'garage': False, 'street': False, 'validated': False, 'lot': True, 'valet': False}","DogsAllowed":"True","RestaurantsPriceRange2":"3"},"business_id":"B_mz59xi-Q3zCIiXsnBM_A","categories":"Shopping, Gardeners, Home Services, Nurseries & Gardening, Landscaping, Home & Garden, Landscape Architects","city":"Sun Prairie","good_for_kids":0,"has_bike_parking":0,"has_wifi":0,"hours":{"Monday":"9:0-17:0","Tuesday":"9:0-17:0","Wednesday":"9:0-17:0","Thursday":"9:0-17:0","Friday":"9:0-17:0","Saturday":"9:0-17:0","Sunday":"9:0-17:0"},"is_open":1,"latitude":43.1223953,"longitude":-89.2391405,"name":"Schonheit Gardens","neighborhood":"","postal_code":"53590","price_range":3,"review_count":3,"stars":3.5,"state":"WI","take_reservations":0,"takes_credit_cards":1}
{"address":"2255 N Rampart Blvd","alcohol?":0,"attributes":{"Alcohol":"none","Ambience":"{'romantic': False, 'intimate': False, 'classy': False, 'hipster': False, 'divey': False, 'touristy': False, 'trendy': False, 'upscale': False, 'casual': True}","BikeParking":"True","BusinessAcceptsCreditCards":"True","BusinessParking":"{'garage': False, 'street': False, 'validated': False, 'lot': True, 'valet': False}","Caters":"True","DriveThru":"False","GoodForKids":"True","GoodForMeal":"{'dessert': False, 'latenight': False, 'lunch': True, 'dinner': True, 'breakfast': True, 'brunch': False}","HasTV":"False","NoiseLevel":"average","OutdoorSeating":"False","RestaurantsAttire":"casual","RestaurantsDelivery":"False","RestaurantsGoodForGroups":"True","RestaurantsPriceRange2":"1","RestaurantsReservations":"False","RestaurantsTableService":"False","RestaurantsTakeOut":"True","WiFi":"no"},"business_id":"kgffcoxT6BQp-gJ-UQ7Czw","categories":"Fast Food, Restaurants, Sandwiches","city":"Las Vegas","good_for_kids":1,"has_bike_parking":1,"has_wifi":0,"hours":{"Monday":"9:0-21:0","Tuesday":"9:0-21:0","Wednesday":"9:0-21:0","Thursday":"9:0-21:0","Friday":"9:0-21:0","Saturday":"9:0-21:0","Sunday":"9:0-21:0"},"is_open":1,"latitude":36.2017936,"longitude":-115.2819809,"name":"Subway","neighborhood":"Summerlin","postal_code":"89128","price_range":1,"review_count":13,"stars":2.5,"state":"NV","take_reservations":0,"takes_credit_cards":1}
{"address":"2227 N Rampart Blvd","alcohol?":1,"attributes":{"Alcohol":"beer_and_wine","Ambience":"{'romantic': False, 'intimate': False, 'classy': False, 'hipster': False, 'divey': False, 'touristy': False, 'trendy': False, 'upscale': False, 'casual': True}","BikeParking":"True","BusinessAcceptsCreditCards":"True","BusinessParking":"{'garage': False, 'street': False, 'validated': False, 'lot': False, 'valet': False}","Caters":"False","GoodForKids":"True","GoodForMeal":"{'dessert': False, 'latenight': False, 'lunch': True, 'dinner': False, 'breakfast': True, 'brunch': True}","HasTV":"True","NoiseLevel":"average","OutdoorSeating":"False","RestaurantsAttire":"casual","RestaurantsDelivery":"False","RestaurantsGoodForGroups":"True","RestaurantsPriceRange2":"2","RestaurantsReservations":"False","RestaurantsTableService":"True","RestaurantsTakeOut":"True","WheelchairAccessible":"True","WiFi":"no"},"business_id":"0jtRI7hVMpQHpUVtUy4ITw","categories":"Beer, Wine & Spirits, Italian, Food, American (Traditional), Breakfast & Brunch, Restaurants","city":"Las Vegas","good_for_kids":1,"has_bike_parking":1,"has_wifi":0,"hours":{"Monday":"7:0-14:30","Tuesday":"7:0-19:0","Wednesday":"7:0-19:0","Thursday":"7:0-19:0","Friday":"7:0-19:0","Saturday":"7:0-14:30","Sunday":"7:0-14:30"},"is_open":1,"latitude":36.2019904392,"longitude":-115.283122245,"name":"Omelet House Summerlin","neighborhood":"Summerlin","postal_code":"89128","price_range":2,"review_count":242,"stars":4.0,"state":"NV","take_reservations":0,"takes_credit_cards":1}
{"address":"28325 N Tatum Blvd, Ste 5","alcohol?":0,"attributes":{"AcceptsInsurance":"False","BikeParking":"False","BusinessAcceptsBitcoin":"False","BusinessAcceptsCreditCards":"True","BusinessParking":"{'garage': False, 'street': False, 'validated': False, 'lot': True, 'valet': False}","ByAppointmentOnly":"True","GoodForKids":"True","HairSpecializesIn":"{'coloring': True, 'africanamerican': True, 'curly': True, 'perms': True, 'kids': False, 'extensions': True, 'asian': True, 'straightperms': True}","RestaurantsPriceRange2":"2","WheelchairAccessible":"True"},"business_id":"pbluh-ZZi_i8XlprfWB1nQ","categories":"Health & Medical, Hair Salons, Skin Care, Hair Extensions, Medical Spas, Cryotherapy, Beauty & Spas","city":"Cave Creek","good_for_kids":1,"has_bike_parking":0,"has_wifi":0,"hours":{"Monday":"6:0-20:0","Tuesday":"6:0-20:0","Wednesday":"6:0-20:0","Thursday":"6:0-20:0","Friday":"6:0-20:0","Saturday":"6:0-20:0"},"is_open":1,"latitude":33.7424883225,"longitude":-111.977420267,"name":"Pamper Me Perfect Beauty & Wellness","neighborhood":"","postal_code":"85331","price_range":2,"review_count":12,"stars":4.5,"state":"AZ","take_reservations":0,"takes_credit_cards":1}
{"address":"15916 W High St","alcohol?":0,"attributes":{"Alcohol":"none","Ambience":"{'romantic': False, 'intimate': False, 'classy': False, 'hipster': False, 'divey': False, 'touristy': False, 'trendy': False, 'upscale': False, 'casual': False}","BusinessAcceptsCreditCards":"True","BusinessParking":"{'garage': False, 'street': True, 'validated': False, 'lot': True, 'valet': False}","Caters":"False","GoodForKids":"True","GoodForMeal":"{'dessert': False, 'latenight': False, 'lunch': False, 'dinner': False, 'breakfast': False, 'brunch': False}","HasTV":"True","NoiseLevel":"average","OutdoorSeating":"False","RestaurantsAttire":"casual","RestaurantsDelivery":"False","RestaurantsGoodForGroups":"True","RestaurantsPriceRange2":"2","RestaurantsReservations":"False","RestaurantsTableService":"True","RestaurantsTakeOut":"True","WheelchairAccessible":"True","WiFi":"free"},"business_id":"UeyHx5LMFjjI4d-NTYkX9Q","categories":"Restaurants, Cafes","city":"Middlefield","good_for_kids":1,"has_bike_parking":0,"has_wifi":1,"hours":{"Monday":"5:30-14:0","Tuesday":"5:30-14:0","Wednesday":"5:30-14:0","Thursday":"5:30-20:0","Friday":"5:30-20:0","Saturday":"5:30-20:0","Sunday":"7:0-14:0"},"is_open":1,"latitude":41.462443,"longitude":-81.0749908,"name":"Crossroads Country Cafe'","neighborhood":"","postal_code":"44062","price_range":2,"review_count":3,"stars":2.5,"state":"OH","take_reservations":0,"takes_credit_cards":1}
{"address":"2930 Medina Rd","alcohol?":0,"attributes":null,"business_id":"WbcAPa3frXsIomKLn2oVDw","categories":"Ice Cream & Frozen Yogurt, Food","city":"Medina","good_for_kids":0,"has_bike_parking":0,"has_wifi":0,"hours":null,"is_open":0,"latitude":41.135371,"longitude":-81.793211,"name":"Strickland's Ice Cream","neighborhood":"","postal_code":"44256","price_range":0,"review_count":3,"stars":3.5,"state":"OH","take_reservations":0,"takes_credit_cards":0}
{"address":"15828 Euclid Ave","alcohol?":0,"attributes":{"Alcohol":"none","Ambience":"{'romantic': False, 'intimate': False, 'classy': False, 'hipster': False, 'divey': False, 'touristy': False, 'trendy': False, 'upscale': False, 'casual': False}","BikeParking":"True","BusinessAcceptsCreditCards":"True","BusinessParking":"{'garage': False, 'street': False, 'validated': False, 'lot': False, 'valet': False}","Caters":"True","GoodForKids":"False","GoodForMeal":"{'dessert': False, 'latenight': False, 'lunch': False, 'dinner': False, 'breakfast': False, 'brunch': False}","HasTV":"False","NoiseLevel":"quiet","OutdoorSeating":"False","RestaurantsAttire":"casual","RestaurantsDelivery":"False","RestaurantsGoodForGroups":"True","RestaurantsPriceRange2":"2","RestaurantsReservations":"False","RestaurantsTableService":"False","RestaurantsTakeOut":"True","WiFi":"no"},"business_id":"qHF2s8U2yzPLgIOGH_IMBw","categories":"Seafood, Restaurants","city":"Cleveland","good_for_kids":0,"has_bike_parking":1,"has_wifi":0,"hours":{"Monday":"10:0-23:0","Tuesday":"10:0-23:0","Wednesday":"10:0-23:0","Thursday":"10:0-23:0","Friday":"10:0-23:0","Saturday":"10:0-0:0"},"is_open":1,"latitude":41.5415709,"longitude":-81.5699009,"name":"John John's Seafood","neighborhood":"Collamer","postal_code":"44112","price_range":2,"review_count":3,"stars":4.5,"state":"OH","take_reservations":0,"takes_credit_cards":1}
{"address":"3319 S Mercy Rd","alcohol?":0,"attributes":{"AcceptsInsurance":"True","ByAppointmentOnly":"False"},"business_id":"iTZDPTc36guXhNhoK-jwmw","categories":"Health & Medical, Physical Therapy, Retirement Homes","city":"Gilbert","good_for_kids":0,"has_bike_parking":0,"has_wifi":0,"hours":{"Monday":"0:0-0:0","Tuesday":"0:0-0:0","Wednesday":"0:0-0:0","Thursday":"0:0-0:0","Friday":"0:0-0:0","Saturday":"0:0-0:0","Sunday":"0:0-0:0"},"is_open":1,"latitude":33.2905965,"longitude":-111.7478144,"name":"Wellsprings of Gilbert","neighborhood":"","postal_code":"85297","price_range":0,"review_count":4,"stars":5.0,"state":"AZ","take_reservations":0,"takes_credit_cards":0}
{"address":"4145 N 83Rd","alcohol?":0,"attributes":{"Alcohol":"none","Ambience":"{'romantic': False, 'intimate': False, 'classy': False, 'hipster': False, 'divey': False, 'touristy': False, 'trendy': False, 'upscale': False, 'casual': False}","BikeParking":"False","BusinessAcceptsCreditCards":"True","BusinessParking":"{'garage': False, 'street': False, 'validated': False, 'lot': False, 'valet': False}","Caters":"False","GoodForKids":"True","GoodForMeal":"{'dessert': False, 'latenight': False, 'lunch': False, 'dinner': False, 'breakfast': False, 'brunch': False}","HasTV":"False","NoiseLevel":"average","OutdoorSeating":"True","RestaurantsAttire":"casual","RestaurantsDelivery":"False","RestaurantsGoodForGroups":"True","RestaurantsPriceRange2":"1","RestaurantsReservations":"False","RestaurantsTableService":"False","RestaurantsTakeOut":"True","WheelchairAccessible":"True","WiFi":"no"},"business_id":"AcGRSWCpb7YB95MTsHlGEw","categories":"Pizza, Fast Food, Restaurants","city":"Phoenix","good_for_kids":1,"has_bike_parking":0,"has_wifi":0,"hours":{"Monday":"10:30-22:0","Tuesday":"10:30-22:0","Wednesday":"10:30-22:0","Thursday":"10:30-22:0","Friday":"10:30-23:0","Saturday":"10:30-23:0","Sunday":"10:30-22:0"},"is_open":1,"latitude":33.4954215852,"longitude":-112.235797843,"name":"Little Caesars Pizza","neighborhood":"","postal_code":"85033","price_range":1,"review_count":4,"stars":2.0,"state":"AZ","take_reservations":0,"takes_credit_cards":1}
{"address":"2929 North 75th Ave, Suite 26","alcohol?":0,"attributes":{"BusinessAcceptsCreditCards":"True"},"business_id":"Zkesf4VRamyOBswJA4_ZhQ","categories":"Automotive, Auto Customization, Shopping, Auto Security, Car Stereo Installation, Electronics","city":"Phoenix","good_for_kids":0,"has_bike_parking":0,"has_wifi":0,"hours":{"Monday":"9:0-19:0","Tuesday":"9:0-19:0","Wednesday":"9:0-19:0","Thursday":"9:0-19:0","Friday":"9:0-19:0","Saturday":"9:0-19:0","Sunday":"12:0-17:0"},"is_open":1,"latitude":33.509413,"longitude":-112.203724,"name":"Audio Express","neighborhood":"","postal_code":"85033","price_range":0,"review_count":29,"stars":3.5,"state":"AZ","take_reservations":0,"takes_credit_cards":1}
{"address":"145 Mcmurray Rd","alcohol?":0,"attributes":{"BusinessAcceptsCreditCards":"True","OutdoorSeating":"False","RestaurantsPriceRange2":"1","RestaurantsTakeOut":"True"},"business_id":"7A6mfqSfG3AG3WZcr45m-Q","categories":"Coffee & Tea, Food, Breakfast & Brunch, Restaurants, Donuts","city":"Upper St Clair","good_for_kids":0,"has_bike_parking":0,"has_wifi":0,"hours":{"Monday":"5:0-0:0","Tuesday":"5:0-0:0","Wednesday":"5:0-0:0","Thursday":"5:0-0:0","Friday":"5:0-0:0","Saturday":"5:0-0:0","Sunday":"5:0-0:0"},"is_open":1,"latitude":40.326016,"longitude":-80.065199,"name":"Dunkin Donuts","neighborhood":"","postal_code":"15241","price_range":1,"review_count":5,"stars":2.0,"state":"PA","take_reservations":0,"takes_credit_cards":1}
{"address":"100 Steelcase Rd E, Unit 101","alcohol?":0,"attributes":{"BusinessAcceptsCreditCards":"True","BusinessParking":"{'garage': False, 'street': False, 'validated': False, 'lot': True, 'valet': False}","RestaurantsPriceRange2":"2","WheelchairAccessible":"True"},"business_id":"3pcHGNI8WHv44fcvgkLrMg","categories":"Home Services, Shopping, Home & Garden, Kitchen & Bath, Interior Design","city":"Markham","good_for_kids":0,"has_bike_parking":0,"has_wifi":0,"hours":{"Monday":"9:30-18:30","Tuesday":"9:30-18:30","Wednesday":"9:30-18:30","Thursday":"9:30-18:30","Friday":"9:30-18:30"},"is_open":1,"latitude":43.8201194,"longitude":-79.347455,"name":"Art Bathe","neighborhood":"","postal_code":"L3R 1E9","price_range":2,"review_count":4,"stars":2.0,"state":"ON","take_reservations":0,"takes_credit_cards":1}
{"address":"3280 Kingston Road","alcohol?":0,"attributes":null,"business_id":"zHwXoh40k86P0aiN1aix9Q","categories":"Hotels, Hotels & Travel, Event Planning & Services","city":"Toronto","good_for_kids":0,"has_bike_parking":0,"has_wifi":0,"hours":null,"is_open":1,"latitude":43.7333951,"longitude":-79.2242058,"name":"Super 8 by Wyndham Toronto East ON","neighborhood":"Scarborough","postal_code":"M1M 1P8","price_range":0,"review_count":3,"stars":2.0,"state":"ON","take_reservations":0,"takes_credit_cards":0}
{"address":"2101 S Decatur Blvd, Ste 11","alcohol?":0,"attributes":{"BikeParking":"True","BusinessAcceptsCreditCards":"True","BusinessParking":"{'garage': False, 'street': False, 'validated': False, 'lot': True, 'valet': False}","ByAppointmentOnly":"False","GoodForKids":"True","RestaurantsPriceRange2":"1","WheelchairAccessible":"True"},"business_id":"0i6GlR5YTCMlwthjqw6ZTQ","categories":"Hair Salons, Beauty & Spas","city":"Las Vegas","good_for_kids":1,"has_bike_parking":1,"has_wifi":0,"hours":{"Monday":"10:0-19:0","Tuesday":"10:0-19:0","Wednesday":"10:0-19:0","Thursday":"10:0-19:0","Friday":"10:0-19:0","Saturday":"10:0-19:0","Sunday":"10:0-14:0"},"is_open":1,"latitude":36.1486584,"longitude":-115.2098129,"name":"Cinthya's Beauty Salon","neighborhood":"Westside","postal_code":"89102","price_range":1,"review_count":16,"stars":4.5,"state":"NV","take_reservations":0,"takes_credit_cards":1}
{"address":"3111 S Valley View Blvd, Unit B120","alcohol?":0,"attributes":{"BusinessAcceptsCreditCards":"True","ByAppointmentOnly":"True"},"business_id":"oSS0p8TeF9BTTD7QWtO6gg","categories":"Flooring, Cabinetry, Refinishing Services, Home Services, Masonry\/Concrete, Tiling, Plumbing, Contractors","city":"Las Vegas","good_for_kids":0,"has_bike_parking":0,"has_wifi":0,"hours":{"Monday":"7:0-17:0","Tuesday":"7:0-17:0","Wednesday":"7:0-17:0","Thursday":"7:0-17:0","Friday":"7:0-17:0","Saturday":"7:0-17:0"},"is_open":1,"latitude":36.1316401,"longitude":-115.1908263,"name":"Aria Remodeling","neighborhood":"Westside","postal_code":"89102","price_range":0,"review_count":3,"stars":5.0,"state":"NV","take_reservations":0,"takes_credit_cards":1}
{"address":"3733 Jarry Rue E","alcohol?":0,"attributes":{"BusinessAcceptsCreditCards":"True","BusinessParking":"{'garage': False, 'street': False, 'validated': False, 'lot': False, 'valet': False}","RestaurantsPriceRange2":"2"},"business_id":"2C8x0RxmqvCOmhvXce4-HA","categories":"Grocery, Food","city":"Montr\u00e9al","good_for_kids":0,"has_bike_parking":0,"has_wifi":0,"hours":null,"is_open":1,"latitude":45.5687842,"longitude":-73.6054883,"name":"Kim Phat Inc","neighborhood":"Villeray-Saint-Michel-Parc-Extension","postal_code":"H1Z 2G1","price_range":2,"review_count":5,"stars":4.0,"state":"QC","take_reservations":0,"takes_credit_cards":1}
{"address":"1111 W Bell Rd","alcohol?":1,"attributes":{"Alcohol":"full_bar","Ambience":"{'romantic': False, 'intimate': False, 'classy': False, 'hipster': False, 'divey': False, 'touristy': False, 'trendy': False, 'upscale': False, 'casual': True}","BikeParking":"True","BusinessAcceptsCreditCards":"True","BusinessParking":"{'garage': False, 'street': False, 'validated': False, 'lot': True, 'valet': False}","Caters":"True","GoodForKids":"True","GoodForMeal":"{'dessert': False, 'latenight': False, 'lunch': True, 'dinner': True, 'breakfast': False, 'brunch': False}","HasTV":"True","NoiseLevel":"average","OutdoorSeating":"False","RestaurantsAttire":"casual","RestaurantsDelivery":"False","RestaurantsGoodForGroups":"True","RestaurantsPriceRange2":"2","RestaurantsReservations":"True","RestaurantsTableService":"True","RestaurantsTakeOut":"True","WheelchairAccessible":"True","WiFi":"free"},"business_id":"cKRMmytHxaSt8F0SMEzKqg","categories":"Event Planning & Services, Soup, Salad, Mexican, Caterers, Restaurants","city":"Phoenix","good_for_kids":1,"has_bike_parking":1,"has_wifi":1,"hours":{"Monday":"11:0-22:0","Tuesday":"11:0-22:0","Wednesday":"11:0-22:0","Thursday":"11:0-22:0","Friday":"11:0-23:0","Saturday":"8:0-23:0","Sunday":"8:0-23:0"},"is_open":1,"latitude":33.6397742,"longitude":-112.0877381,"name":"Manuel's Mexican Restaurant & Cantina - Bell Rd","neighborhood":"","postal_code":"85023","price_range":2,"review_count":230,"stars":3.5,"state":"AZ","take_reservations":1,"takes_credit_cards":1}
{"address":"880 16 Avenue SW, Unit 200","alcohol?":0,"attributes":{"BikeParking":"True","ByAppointmentOnly":"False","GoodForKids":"False"},"business_id":"uwF2y-QHF9LgSagxxluWaw","categories":"Active Life, Trainers, Gyms, Sports Clubs, Fitness & Instruction","city":"Calgary","good_for_kids":0,"has_bike_parking":1,"has_wifi":0,"hours":{"Monday":"0:0-0:0","Tuesday":"0:0-0:0","Wednesday":"0:0-0:0","Thursday":"0:0-0:0","Friday":"0:0-0:0","Saturday":"0:0-0:0","Sunday":"0:0-0:0"},"is_open":1,"latitude":51.038371,"longitude":-114.081121,"name":"GoodLife Fitness","neighborhood":"","postal_code":"T2R 0S9","price_range":0,"review_count":6,"stars":2.5,"state":"AB","take_reservations":0,"takes_credit_cards":0}
{"address":"547 California Ave","alcohol?":0,"attributes":{"BusinessAcceptsCreditCards":"True"},"business_id":"5vpMTDaAkpu9PBW1psG_RA","categories":"Auto Repair, Automotive","city":"Avalon","good_for_kids":0,"has_bike_parking":0,"has_wifi":0,"hours":null,"is_open":1,"latitude":40.502098,"longitude":-80.0692605,"name":"E R Automotive","neighborhood":"Avalon","postal_code":"15202","price_range":0,"review_count":4,"stars":5.0,"state":"PA","take_reservations":0,"takes_credit_cards":1}
